{"monday":[{"name":"Csci 4131 Lecture","start":"11:15 AM","end":"12:30 PM","phone":"See Class information on Canvas","location":"105 Tate Hall","info":"CSci 4131 Info","url":"https://onestop2.umn.edu/pcas/viewCatalogCourse.do?courseId=790654"},{"name":"MyFavDayEver","start":"12:30 PM","end":"11:33 AM","phone":"Sample Phone Num","location":"sam","info":"yoohoo","url":"https://www.youtube.com"}],"tuesday":[{"name":"Nice Testing Time","start":"12:22 PM","end":"2:02 PM","phone":"Sample Phone Num","location":"dsafs","info":"dddd","url":"https://www.google.com"}],"wednesday":[{"name":"MyFavDayEver","start":"11:05 AM","end":"12:00 PM","phone":"Sample Phone Num","location":"Sample Loc","info":"yoohoo","url":"https://www.youtube.com"},{"name":"CSci 4131 Lecture","start":"11:15 AM","end":"12:30 PM","phone":"See Class information on Canvas","location":"105 Tate Hall","info":"CSci 4131 Info","url":"https://onestop2.umn.edu/pcas/viewCatalogCourse.do?courseId=790654"},{"name":"MyFavDayEver","start":"12:52 PM","end":"1:59 PM","phone":"Sample Phone Num","location":"Sample Loc","info":"yoohoo","url":"https://www.youtube.com"},{"name":"MyFavDayEver","start":"2:00 PM","end":"4:59 AM","phone":"sam","location":"Sample Loc","info":"yoohoo","url":"https://www.youtube.com"}],"thursday":[],"friday":[],"saturday":[],"sunday":[{"name":"Nice Testing Time","start":"7:58 AM","end":"9:58 AM","phone":"sam","location":"sam","info":"dasf","url":"https://www.youtube.com"}]}